"State","City","lon","lat"
"AR","Fayetteville",-94.1574263,36.0625795
"AR","Siloam Springs",-94.5404962,36.1881365
"AZ","Avondale",-112.3496021,33.4355977
"AZ","Chandler",-111.8412502,33.3061605
"AZ","Phoenix",-112.0740373,33.4483771
"AZ","Prescott Valley ",-112.315721,34.6100243
"AZ","Scottsdale",-111.9260519,33.4941704
"CO","Arvada",-105.0874842,39.8027644
"CO","Centennial",-104.8771726,39.5807452
"IA","Mason City",-93.2010367,43.1535728
"LA","Baton Rouge",-91.1403196,30.4582829
"MA","Methuen ",-71.1908924,42.7262016
"MA","Taunton",-71.0897674,41.900101
"MS","Water Valley",-89.6314736,34.1514989
"NM","Clovis",-103.2052272,34.4047987
"NM","Espanola",-106.0818233,35.9910383
"OK","Claremore",-95.61609,36.3125963
"OK","Moore",-97.4867028,35.3395079
"OK","Newcastle",-97.59976,35.2472869
"OK","Norman",-97.4394777,35.2225668
"OK","Oklahoma City",-97.5164276,35.4675602
"TX","Rosenberg",-95.8085623,29.5571825
"TX","The Woodlands",-95.4612625,30.1658207
"TX","Waco",-97.1466695,31.549333
"VA","Colonial Heights",-77.4102607,37.244039
"AR","Ashdown ",-94.1313054,33.6742867
"AZ","Cottonwood",-112.0098791,34.7391876
"AZ","Mesa",-111.8314724,33.4151843
"AZ","Sedona",-111.7609896,34.8697395
"IA","Algona",-94.233019,43.0699663
"LA","Shreveport",-93.7501789,32.5251516
"MA","Brockton",-71.0183787,42.0834335
"MA","Fall River",-71.1550451,41.7014912
"MA","Southbridge",-72.0333905,42.0751065
"MI","Clio",-83.7341274,43.1775256
"MN","BLOOMINGTON",-93.2982799,44.840798
"NC","Raleigh",-78.6381787,35.7795897
"OK","Del City",-97.4408698,35.4420062
"OK","Edmond",-97.4780954,35.6528323
"OK","Tulsa",-95.992775,36.1539816
"OK","Tulsa ",-95.992775,36.1539816
"OK","Yukon",-97.7625441,35.5067215
"SC","Orangeburg",-80.8556476,33.4918203
"TN","Soddy Daisy",-85.1907904,35.2359025
"TX","Abilene",-99.7331439,32.4487364
"TX","Atlanta",-94.1643537,33.1137419
"TX","Conroe",-95.4560512,30.3118769
"TX","Dallas",-96.7969879,32.7766642
"TX","Kingwood",-95.1902986,30.0575359
"TX","Marshall",-94.3674184,32.5448714
"WI","Madison",-89.4012302,43.0730517
"AR","Gravette",-94.4535484,36.4220207
"AZ","Tempe",-111.9400054,33.4255104
"FL","Tampa",-82.4571776,27.950575
"IA","Marion",-91.5968958,42.033279
"NM","Albuquerque",-106.6055534,35.0853336
"TX","Friendswood",-95.2010447,29.5293998
"TX","Georgetown",-97.6779842,30.6332618
"TX","Montgomery",-95.6963355,30.3882613
"AR","Bentonville",-94.2088172,36.3728538
"AR","Springdale ",-94.1288141,36.1867442
"AZ","Casa Grande",-111.7573521,32.8795022
"NC","Gastonia",-81.1873005,35.262082
"TX","Cedar Park",-97.8202888,30.505198
"TX","Decatur",-97.5861393,33.2342834
"TX","Fort Worth ",-97.3307658,32.7554883
"TX","Longview",-94.7404891,32.5007037
"TX","Texarkana",-94.0476882,33.425125
"VA","Fredericksburg",-77.4605399,38.3031837
"WI","Richland Center",-90.3867928,43.3347053
"WI","Verona",-89.5331773,42.990831
"TX","Round Rock",-97.678896,30.5082551
"AZ","Prescott",-112.4685025,34.5400242
"AZ","Tucson",-110.926479,32.2217429
"CO","Golden",-105.2210997,39.755543
"OK","Midwest City",-97.3967019,35.4495065
"IA","Cedar Rapids",-91.6656232,41.9778795
"MA","Norwood",-71.1989695,42.1943909
"AZ","Mesa ",-111.8314724,33.4151843
"IA","Hiawatha",-91.6815252,42.0491958
"IA","Iowa Falls",-93.2645741,42.5198868
"NC","Shelby",-81.5356463,35.2923513
"TX","Houston",-95.3698028,29.7604267
"TX","Marble Falls",-98.2728003,30.5782446
"CO","Longmont",-105.1019275,40.1672068
"IA","New Hampton",-92.317864,43.0592724
"MN","Rogers",-93.5525206,45.1878015
"TX","Needville",-95.8377297,29.3994101
"AR","Texarkana",-94.0376881,33.4417915
"AZ","Phoenix ",-112.0740373,33.4483771
"NC","Cary ",-78.7811169,35.79154
"MA","Brighton",-71.1626756,42.3463503
"TX","Frisco",-96.8236116,33.1506744
"CO","Broomfield",-105.0866504,39.9205411
"SC","Santee",-80.4864764,33.4751634
"NC","Garner",-78.6141709,35.7112642
"AZ","Glendale",-112.1859866,33.5386523
"IA","Osage",-92.8190838,43.2841382
"TX","Haslet",-97.3477957,32.9748469
"AR","Little Rock",-92.2895948,34.7464809
"MN","Rush City",-92.9654903,45.6855144
"TX","Keller",-97.229298,32.9341893
"WI","Belleville",-89.5381766,42.8597241
"AR","Prairie Gove",-94.3177103,35.9759145
"MA","Haverhill",-71.0772796,42.7762015
"MI","Grand Rapids",-85.6680863,42.9633599
"OK","Bartlesville",-95.9808179,36.7473114
"AR","Fayetteville ",-94.1574263,36.0625795
"TX","New Braunfels",-98.1244531,29.7030024
"IA","Ackley",-93.0529775,42.555534
"OK","Stillwater",-97.0583681,36.1156071
"VA","Woodbridge",-77.2497049,38.6581722
"NC","Burlington",-79.4377991,36.0956918
"TX","Bridgeport",-97.7547552,33.2101155
"MN","BLAINE",-93.2349489,45.1607987
"AR","Cabot",-92.0165336,34.974532
"AZ","Florence",-111.3873431,33.0314508
"CA","El Centro",-115.5630514,32.792
"MN","COLUMBIA HEIGHTS",-93.2474098,45.0481968
"AR","Mountain Home",-92.381346,36.3353949
"AZ","Chandler ",-111.8412502,33.3061605
"AZ","Gilbert",-111.789027,33.3528264
"AR","Springdale",-94.1288141,36.1867442
"TX","Fort Worth",-97.3307658,32.7554883
"GA","Valdosta",-83.2784851,30.8327022
"AR","Conway",-92.4421011,35.0886963
"AR","Praire Grove",-94.3177103,35.9759145
"AZ","Tempe ",-111.9400054,33.4255104
"NC","Chapel Hill",-79.0558445,35.9131996
"NC","Durham",-78.898619,35.9940329
"NC","Fuguay Varina",-78.8000128,35.5843235
"NC","Monroe",-80.5495112,34.9854275
"NC","Salisbury",-80.4742261,35.6709727
"NC","Wake Forest",-78.5097228,35.9798734
"AR","Clarksville",-93.4665731,35.4714724
"NC","Candler",-82.6927363,35.5360973
"NC","Clayton",-78.4563914,35.650711
"NC","Fayetteville",-78.8783585,35.0526641
"NC","Hendersonsville",-82.5514869,35.5950581
"NC","Holly Springs",-78.8336218,35.6512655
"VA","Farmville",-78.3919401,37.3020965
"NC","Boone",-81.6745517,36.216795
"NC","Greenville",-77.3663538,35.612661
"NC","Hickory",-81.3444573,35.7344538
"NC","Kinston",-77.5816353,35.2626635
"NC","Morehead City",-76.7260436,34.7229391
"NC","Sanford",-79.1802994,35.4798757
"NC","Statesville",-80.8872959,35.7826363
"TX","Arlington ",-97.1080656,32.735687
"TX","El Campo",-96.2696867,29.1966405
"VA","Danville",-79.3950228,36.5859718
"VA","Gretna",-79.3589134,36.9537526
"VA","Moneta",-79.6195556,37.1826516
"NC","Apex",-78.8502856,35.732652
"NC","Goldsboro",-77.9927651,35.3848841
"NC","Greensboro",-79.7919754,36.0726354
"NC","High Point",-80.0053176,35.9556923
"NC","Kernersville",-80.0736533,36.1198588
"NC","Rocky Mount",-77.7905339,35.9382103
"NC","WINSTON SALEM",-80.244216,36.0998596
"NC","Winston-Salem",-80.244216,36.0998596
"VA","Bedford",-79.5230877,37.3343079
"FL","Brandon",-82.2859247,27.937801
"IA","Clear Lake",-93.3788108,43.1435564
"NC","Roxboro",-78.982788,36.3937519
"VA","Lynchburg",-79.1422464,37.4137536
"NC","Henderson",-78.3991638,36.3295905
"NC","Wilmington",-77.9447102,34.2257255
"VA","Burkeville",-78.2013859,37.1876529
"AZ","Sun City",-112.2718239,33.5975393
"TX","Glen Rose",-97.7553061,32.2345872
"VA","Brookneal",-78.9441801,37.0501416
"VA","Keysville",-78.4833277,37.0404287
"WI","Neenah",-88.462609,44.1858193
"WI","Oregon",-89.3845634,42.9261116
"CA","Calexico",-115.4988834,32.6789476
"IA","Lake Mills ",-93.5325269,43.419329
"NC","Rockingham",-79.7739457,34.9393201
"WI","Black Creek",-88.4506568,44.4774856
"AR","Lowell",-94.1307587,36.2553543
"AR","Warren",-92.064583,33.6126086
"NC","Aberdeen",-79.4294789,35.131547
"TX","Cedar Hill",-96.9561152,32.5884689
"WI","Appleton",-88.4153847,44.2619309
"WI","Clintonville",-88.7623228,44.6205349
"AZ","Glendale ",-112.1859866,33.5386523
"MI","Livonia",-83.3527097,42.36837
"SD","Flandreau",-96.595324,44.0494154
"WI","Wild Rose",-89.2490064,44.1785884
"GA","Albany",-84.155741,31.5785074
"AZ","Peoria",-112.2373779,33.5805955
"NE","Beatrice",-96.7466913,40.2659269
"MO","Springfield ",-93.2922989,37.2089572
"VA","Altavista",-79.285579,37.1118094
"NC","Roanoke Rapids",-77.6541464,36.4615395
"VA","Victoria",-78.22722,36.9948743
"NC","Cary",-78.7811169,35.79154
"TX","Huntsville",-95.5507771,30.7235263
"TX","Spring",-95.4171601,30.0799405
"MN","Minneapolis",-93.2650108,44.977753
"ND","Bismarck",-100.7837392,46.8083268
"WI","Oshkosh",-88.5426136,44.0247062
"CA","Brawley",-115.530267,32.9786566
"IA","Northwood",-93.2210371,43.4441245
"MN","Maple Grove",-93.4557877,45.0724642
"WI","Waupaca",-89.0859464,44.3580348
"MN","BURNSVILLE",-93.2777226,44.7677424
"MN","Pine City",-92.9703435,45.8229105
"MN","Saint Francis",-93.387922,45.3974847
"TX","Edinburg",-98.1633432,26.3017374
"MN","CHISAGO CITY",-92.8899376,45.3735757
"MN","Farmington",-93.1435497,44.6402434
"MN","Hugo",-92.9933412,45.159964
"MN","North Branch",-92.9931054,45.5102135
"WI","Ellsworth",-92.4874124,44.7321897
"AK","Nome",-165.4063889,64.5011111
"MN","BROOKLYN PARK",-93.3563405,45.0941315
"MN","Eden Prairie",-93.470786,44.8546856
"MN","Prior Lake",-93.4227274,44.7132969
"MN","Hibbing",-92.9376887,47.4271546
"MN","Princeton",-93.5816278,45.569965
"MN","ANDOVER",-93.2913405,45.2332984
"MN","Elk River",-93.5691122,45.3377283
"MN","Maplewood Grove",-93.4557877,45.0724642
"MN","Rosemount",-93.1257723,44.7394103
"MN","St Paul",-93.0899578,44.9537029
"MN","Zimmerman",-93.589962,45.4432986
"WV","Riverton",-79.4358806,38.744002
"GA","Albany ",-84.155741,31.5785074
"WV","Franklin",-79.3311531,38.6428945
"MN","Eagan",-93.1668858,44.8041322
"MN","New Brighton",-93.2018908,45.0655212
"MN","Wyoming",-92.9980556,45.3375
"MN","Apple Valley",-93.21772,44.7319094
"MN","Fridley",-93.2632821,45.0860765
"IA","Greene",-92.8024158,42.8958066
"TX","Montgomery ",-95.6963355,30.3882613
"IA","Rockford",-92.9485301,43.0521922
"MN","MINNEAPOLIS",-93.2650108,44.977753
"MN","Mountain Iron",-92.623515,47.5324267
"TX","Euless",-97.0819541,32.8370727
"IA","Charles City",-92.6724112,43.0663612
"MO","Springfield",-93.2922989,37.2089572
"NC","Harrisburg",-80.6559017,35.3237528
"NC","Mooresville",-80.8100724,35.5848596
"MN","Burnsville",-93.2777226,44.7677424
"TX","Pecos",-103.4932293,31.4229124
"IA","St Ansgar",-92.9203887,43.3784811
"NM","Socorro",-106.8914159,34.0583995
"TX","Lubbock ",-101.8551665,33.5778631
"IA","Forest City",-93.6371937,43.2624685
"NC","Charlotte",-80.8431267,35.2270869
"NC","Leland",-78.0447143,34.2562805
"IA","Bancroft",-94.2180192,43.2927386
"NC","Elizabeth City",-76.2510461,36.2946008
"MN","Lakeville",-93.24272,44.6496868
"MO","Noel",-94.485217,36.5456293
"WI","Eau Claire",-91.4984941,44.811349
"GA","Bainbridge",-84.5754699,30.9037995
"SD","De Smet",-97.5503541,44.3874696
"NC","Concord",-80.579511,35.4087517
"MO","Nixa",-93.294353,37.0433863
"CO","Greeley",-104.7091322,40.4233142
"MN","Nashwauk",-93.1655556,47.3819444
"TX","Bedford",-97.1430671,32.844017
"TX","Mansfield",-97.1416768,32.5631924
"TX","For Worth ",-97.3307658,32.7554883
"WI","Berlin",-88.9434476,43.9680364
"CA","San Diego",-117.1610838,32.715738
"WI","Milwaukee",-87.9064736,43.0389025
"AZ","Goodyear",-112.3576567,33.4353394
"OH","Dayton",-84.1916069,39.7589478
"NC","Rocky Mount ",-77.7905339,35.9382103
"TX","Plano",-96.6988856,33.0198431
"AZ","Surprise",-112.3679279,33.6292337
"MN","Lino Lakes",-93.0888324,45.1602442
"MO","Webb City",-94.4630035,37.1464475
"NC","Wilson",-77.9155395,35.7212689
"TX","Little Elm",-96.9375051,33.1626193
"SD","Highmore",-99.4415007,44.5213731
"CA","Newport Beach",-117.9289469,33.6189101
"TX","Austin",-97.7430608,30.267153
"WI","Weyauwega",-88.9337226,44.3213695
"MI","Brighton",-83.7802214,42.5294773
"AZ","Tolleson",-112.259321,33.4500425
"MN","Milaca",-93.6544079,45.755799
"VA","Dumfries",-77.3280382,38.5676202
"WI","Manawa",-88.9198289,44.4644255
"IA","Riceville",-92.5540687,43.3638571
"GA","Carrollton",-85.0766113,33.5801103
"GA","Bremen",-85.1455036,33.7212179
"IL","Elgin",-88.2825668,42.0354084
"VA","Norton",-82.6290459,36.933433
"CA","Escondido",-117.086421,33.1192068
"IL","Arlington Heights",-87.9806265,42.0883603
"AZ","Flagstaff",-111.651302,35.1982836
"AZ","Lake Havasu City",-114.3224548,34.483901
"GA","Rome",-85.1646726,34.257038
"HI","Honolulu",-157.8583333,21.3069444
"IL","Addison ",-87.9889556,41.931696
"IL","Dundee",-88.3044908,42.1250261
"MO","Lees Summit",-94.3821724,38.9108408
"WV","Harman",-79.5250534,38.9223323
"IL","Hanover Park",-88.1450735,41.9994722
"TX","Arlington",-97.1080656,32.735687
"TX","Mesquite ",-96.5991593,32.7667955
"IA","Winterset",-94.0138393,41.3308237
"TX","McKinney",-96.6397822,33.1972465
"MO","Liberty",-94.4191177,39.2461138
"IL","East Dundee",-88.2714689,42.0989145
"IL","Waukegan ",-87.8447938,42.3636331
"UT","Salt Lake City",-111.8910474,40.7607793
"WI","Middleton",-89.5042876,43.0972174
"SD","Murdo",-100.7129143,43.8883224
"LA","Lafayette",-92.0198427,30.2240897
"MI","Jackson",-84.4013462,42.245869
"CA","San Ysidro",-117.0470434,32.555556
"MO","Kansas City",-94.5785667,39.0997265
"IL","West Chicago",-88.2039607,41.8847507
"SD","Plankinton",-98.4850855,43.715546
"IL","Richmond",-88.3059251,42.4758522
"KS","Leawood",-94.6169012,38.966673
"HI","Mililani",-158.0152807,21.4513314
"KS","Topeka",-95.6890185,39.0558235
"OH","Lima",-84.1052256,40.742551
"TX","Azle",-97.5458565,32.8951262
"OH","Ada",-83.8227148,40.7694969
"OH","Kenton",-83.6096516,40.6469982
"TX","McAllen ",-98.2300124,26.2034071
"TX","Richardson",-96.7298519,32.9483335
"KS","Merriam",-94.6935701,39.0236165
"IL","Antioch",-88.0956396,42.4772418
"MA","Quincy",-71.0022705,42.2528772
"TX","Alton",-98.3133594,26.2872995
"TX","Edingburg",-98.1633432,26.3017374
"TX","Mission",-98.3252932,26.2159066
"WI","Lola",-89.1306665,44.5080338
"WV","Point Pleasant",-82.1370889,38.8445251
"AR","Russellville",-93.1337856,35.2784173
"AZ","Chino Valley",-112.4537809,34.7575227
"TX","McAllen",-98.2300124,26.2034071
"VA","Vienna",-77.2652604,38.9012225
"MA","North Quincy",-71.0245188,42.2811843
"HI","Aiea",-157.9255357,21.386338
"TX","Tomball",-95.6160549,30.0971621
"UT","Draper",-111.8638226,40.5246711
"GA","Villa Rica",-84.9191081,33.732052
"KS","Lawrence",-95.2352501,38.9716689
"KS","Hutchinson",-97.9297743,38.0608445
"MO","Rogersville",-93.0557343,37.116995
"NC","Laurinburg",-79.4628248,34.7740494
"NY","Rochester",-77.6109219,43.16103
"IA","Buffalo Center",-93.9466193,43.3857909
"TX","Amarillo",-101.8312969,35.2219971
"IL","Zion",-87.8328505,42.4461322
"NC","Lenoir",-81.5389849,35.9140196
"MN","Morton",-94.9843725,44.5514993
"TX","Granbury",-97.7941967,32.4420826
"MA","Hull",-70.9078346,42.3020647
"TX","Saginaw",-97.3639068,32.8601275
"TX","San Antonio",-98.4936282,29.4241219
"WY","Cheyenne",-104.8202462,41.1399814
"IL","Mt Prospect",-87.9372908,42.0664167
"CA","Alpine",-116.7664109,32.8350521
"IL","Johnsburg",-88.2420315,42.3800209
"MN","Savage",-93.3591147,44.7647329
"OH","Russells Point",-83.8927162,40.4711612
"CO","Colorado Springs",-104.8213634,38.8338816
"TX","Haltom City",-97.2691817,32.7995738
"UT","West Jordan",-111.9391031,40.6096698
"IL","Round Lake Beach",-88.0900815,42.3716881
"MI","Bloomfield Hills",-83.2454883,42.583645
"SD","Presho",-100.0587343,43.9097116
"TX","North Richland Hills",-97.2289029,32.8342952
"TX","Austin ",-97.7430608,30.267153
"TX","Kyle",-97.8772267,29.9891052
"TX","Bastrop",-97.3152701,30.1104947
"TX","Universal Estates Colonia",-98.193344,26.1272983
"GA","Atlanta ",-84.3879824,33.7489954
"SD","Huron",-98.2142572,44.3633173
"TX","Manor",-97.5569456,30.3407629
"IL","Bensenville",-87.9400657,41.9550296
"LA","Denham Springs",-90.9562125,30.4868564
"SD","Fort Thompson",-99.4378846,44.068601
"SD","Aberdeen",-98.4864829,45.4646985
"TX","weslaco",-97.9908366,26.1595194
"LA","Denham springs",-90.9562125,30.4868564
"WI","Bayfield",-90.81824,46.8107671
"OH","Wapakoneta",-84.1935594,40.5678265
"AK","Shaktoolik",-161.1538889,64.3338889
"AL","Auburn",-85.4807825,32.6098566
"AL","Opelika",-85.3782795,32.6454116
"TN","Cookeville",-85.5016423,36.162839
"TN","Morristown",-83.2948922,36.2139814
"TX","Everman",-97.2891817,32.630968
"GA","Griffin",-84.2640904,33.2467807
"GA","VALDOSTA",-83.2784851,30.8327022
"IA","Sheffield",-93.2118688,42.8944129
"SD","Eagle Butte",-101.2224805,44.9886537
"SD","Isabel",-101.429593,45.3941475
"CA","Campo",-116.4697321,32.6075795
"MI","West Bloomfield",-83.373339,42.5678534
"SD","Bison ",-102.4612708,45.5202647
"SD","Faith",-102.0359924,45.0230391
"TX","Livingston",-94.9329898,30.711029
"TX","Nacogdoches",-94.6554874,31.6035129
"MA","Natick",-71.3468091,42.2775281
"SD","Mission",-100.6581944,43.3058368
"TX","Colleyville",-97.155012,32.8809603
"TX","Pharr",-98.1836216,26.1947962
"IL","Clarendon Hills",-87.9547835,41.7975307
"IN","LaPorte",-86.7227195,41.611143
"MA","West Brookfield",-72.1411642,42.2353463
"NY","Auburn",-76.5660529,42.9317335
"VA","Leesburg",-77.5636015,39.1156615
"VA","Sterling",-77.4291298,39.0066993
"IA","Boone",-93.8802273,42.0597047
"KY","Harrodsburg",-84.8432852,37.762298
"TN","Maryville",-83.9704593,35.7564719
"VA","Reston",-77.3570028,38.9586307
"GA","Warm Springs",-84.6810381,32.8904081
"IL","Elk Grove",-87.9703461,42.0039178
"MI","Clinton Township",-82.9195514,42.5868882
"MI","Saint Joseph",-86.4895463,42.0938577
"NE","Omaha",-95.9979883,41.2523634
"GA","Blue Ridge",-84.324087,34.8639719
"GA","Forsyth",-83.938242,33.0342974
"IL","Tinley Park",-87.7932939,41.5731442
"TX","Rockwall",-96.4597089,32.9312336
"TX","Sulphur Springs",-95.6010668,33.1384479
"VA","Ashburn",-77.4874416,39.0437567
"GA","Eastman",-83.1776514,32.1976729
"MI","Rochester Hills",-83.1499322,42.6583661
"TX","San Antonio ",-98.4936282,29.4241219
"TX","White Settlement",-97.4583538,32.7595737
"VA","South Riding ",-77.4985673,38.9120704
"IL","Chicago",-87.6297982,41.8781136
"MI","Bingham Farms",-83.2732642,42.515868
"TX","Lakeway",-97.991679,30.3679788
"CA","Long Beach",-118.1937395,33.7700504
"GA","Hiawassee",-83.7573948,34.9492586
"MI","Jenison",-85.7919784,42.907248
"TX","Lubbock",-101.8551665,33.5778631
"WA","Richland",-119.2844621,46.2856907
"WV","Charleston",-81.6326234,38.3498195
"AK","Brevig Mission",-166.4891667,65.3347222
"FL","Jacksonville",-81.655651,30.3321838
"FL","Jacksonville Beach",-81.3961338,30.2841224
"FL","Orange Park",-81.706484,30.1660736
"OH","Mason ",-84.309939,39.3600586
"TN","Cleveland",-84.8766115,35.1595182
"UT","Ogden",-111.9738304,41.223
"AK","Savoonga",-170.4788888,63.6941667
"GA","Blairsville",-83.9582412,34.8761989
"GA","East Point ",-84.4393724,33.6795531
"GA","Wadley",-82.4040162,32.8668223
"MI","Warren",-83.0146526,42.5144566
"NC","Hendersonville",-82.4609528,35.3187279
"NC","Spindale ",-81.929271,35.3601212
"TX","Schertz",-98.269734,29.5521737
"FL","Lake City",-82.6392899,30.1896756
"GA","Louisville",-82.4112377,33.0015407
"IA","Lake City",-94.7338704,42.2674828
"LA","Clinton",-91.0156594,30.8657362
"NY","Clifton Park ",-73.8183804,42.844668
"TX","Midlothian",-96.9944489,32.482361
"CA","Davis",-121.7405167,38.5449065
"CO","Thornton",-104.9719243,39.8680412
"TN","Louisville ",-84.0479643,35.8217479
"AK","Gambell",-171.7411111,63.7797222
"AK","Teller",-166.3608333,65.2636111
"MI","Grand Haven",-86.2283864,43.0630734
"KY","Elizabethtown",-85.8649408,37.7030646
"AK","White Mountain",-163.4055556,64.6813889
"NY","Ogdensburg",-75.4863364,44.6942291
"OH","Liberty Township",-84.406761,39.4039859
"SD","Wessington Springs",-98.569536,44.0791571
"TN","Vonroe",-84.2418612,35.590078
"TX","Grapevine",-97.0780654,32.9342919
"FL","Clearwater",-82.8001026,27.9658533
"FL","Largo",-82.7873244,27.9094665
"FL","Plant City",-82.1128641,28.0186323
"FL","Riverview",-82.3264809,27.8661364
"FL","St. Petersburg",-82.6267345,27.7518284
"GA","Thomaston",-84.3265854,32.8881879
"OH","Cincinnati",-84.5120196,39.1031182
"TX","San Angelo",-100.4370375,31.4637723
"CT","North Haven Ct ",-72.8595447,41.3909139
"CT","West Haven",-72.9469711,41.2705484
"FL","Dunedin",-82.7717684,28.0197404
"FL","New Port Richey",-82.7192671,28.2441768
"FL","Safety Harbor",-82.6931553,27.9908529
"IA","Earlham",-94.1229834,41.4915674
"IL","Schaumburg",-88.0834059,42.0333607
"MO","Saint Louis",-90.1994042,38.6270025
"TX","Eastland ",-98.8175623,32.4015198
"TX","Glen Rosa",-97.7553061,32.2345872
"TX","Granbury ",-97.7941967,32.4420826
"WA","Seattle",-122.3320708,47.6062095
"AK","Little Diomede",-168.924255,65.7521798
"CT","Shelton",-73.0931641,41.3164856
"FL","Kissimmee",-81.407571,28.2919557
"FL","Orlando",-81.3792365,28.5383355
"FL","Winter Garden",-81.5861847,28.5652787
"TX","Wharton",-96.1027371,29.3116366
"VA","Newport News",-76.4730122,37.0870821
"GA","Dublin ",-82.903754,32.5404447
"NC","Morrisville",-78.8255621,35.823483
"NY","SAUQUOIT",-75.2600438,43.0041276
"OK","Koweta",-95.650814,35.9517674
"TX","Cleburne",-97.3866837,32.3476438
"TX","New Boston",-94.4154787,33.4598415
"FL","St Cloud",-81.2811801,28.2489016
"IL","ARLINGTON HTS",-87.9806265,42.0883603
"TN","Bulls Gap",-83.0859967,36.2570407
"FL","Palatka",-81.6375819,29.6485801
"IL","Arlington Heights ",-87.9806265,42.0883603
"IL","Rochelle",-89.0687073,41.9239178
"OK","Eufaula",-95.5824846,35.2873206
"NC","Eden",-79.7667026,36.4884715
"OH","Euclid",-81.5267873,41.5931049
"KY","Bowling Green",-86.4808043,36.9685219
"LA","Lake Charles",-93.2173758,30.2265949
"LA","Lake Charles ",-93.2173758,30.2265949
"LA","Moss Bluff ",-93.1907097,30.3027042
"OH","Newark",-82.4012642,40.0581205
"SD","Martin",-101.7326485,43.1724984
"KY","Russellville ",-86.887219,36.8453199
"LA","Sulphur",-93.3773783,30.2365943
"OK","Owasso",-95.8547119,36.2695388
"SD","Woonsocket",-98.2756432,44.0535982
"VA","Harrsionburg",-78.8689155,38.4495688
"GA","Marietta",-84.5499327,33.952602
"NY","Watertown",-75.9107565,43.9747838
"TN","Smithville",-85.8141516,35.9606185
"AK","St. Michael",-162.0391667,63.4780556
"AR","Fort Smith",-94.3985475,35.3859242
"KS","Junction City",-96.8313978,39.0286093
"OH","Pataskala",-82.6743341,39.9956193
"TX","Ennis",-96.6252679,32.3293111
"NH","Wolfeboro",-71.2094799,43.5852069
"KY","Richmond",-84.2946539,37.7478572
"MI","Farmington Hills",-83.3677168,42.4989936
"FL","Gainesville",-82.3248262,29.6516344
"IL","Morrison",-89.9651186,41.809751
"MT","Hamilton",-114.1548161,46.2471437
"NC","Cullowhee",-83.1765333,35.3137111
"NC","Sylva",-83.2259803,35.3737111
"NC","Sylva ",-83.2259803,35.3737111
"NY","Liverpool",-76.2177046,43.106456
"NY","Rome ",-75.4557303,43.2128473
"OK","Elk City",-99.4042592,35.4119944
"OK","Enid",-97.8783911,36.3955891
"OK","Lawton",-98.3959291,34.6035669
"IL","Hinsdale",-87.9370052,41.8008642
"NY","Camillus",-76.3040965,43.039233
"OK","Shawnee",-96.9253004,35.3272928
"FL","Port Orange",-80.9956105,29.1383165
"MT","Corvallis",-114.1128734,46.3140884
"NY","Brewerton",-76.1407575,43.2381242
"TX","New Braunfels ",-98.1244531,29.7030024
"FL","New Smyrna Beach ",-80.9269984,29.0258191
"NE","Papillion",-96.0422378,41.1544432
"OH","St Marys",-84.3893961,40.5422697
"NC","Asheville",-82.5514869,35.5950581
"WI","New London",-88.7398256,44.3927582
"AK","Shishmaref",-166.0719444,66.2566667
"FL","Gainsville ",-82.3248262,29.6516344
"HI","Kaneohe",-157.7973653,21.3996475
"MI","BLOOMFIELD TWP",-83.2827093,42.5793103
"NC","Bryson City",-83.4473809,35.4309291
"FL","Tallahassee",-84.2807329,30.4382559
"IN","Sullivan ",-87.4058525,39.0953199
"OH","Granville",-82.5196037,40.0681192
"TX","Ferris",-96.6655488,32.5340262
"NY","Yonkers",-73.8987469,40.9312099
"FL","Saint Cloud",-81.2811801,28.2489016
"IA","Council Bluffs",-95.8608333,41.2619444
"IL","Chester",-89.8220505,37.9136628
"IL","Northbrook",-87.8289548,42.1275267
"NC","Taylorsville",-81.1768813,35.9216748
"NC","Franklin",-83.3815429,35.1823171
"OK","Bixby",-95.8833235,35.9420431
"OK","Sapulpa",-96.1141664,35.9987007
"IN","Carlisle",-87.4025572,38.9623034
"KY","Harlan",-83.321848,36.8431441
"NC","Lumberton",-79.0086424,34.6182199
"FL","Saint Augustine",-81.3124341,29.9012437
"NY","Syracuse",-76.1474244,43.0481221
"FL","Winter Park ",-81.3392352,28.5999998
"HI","Hilo",-155.0884869,19.7070942
"NC","Brevard",-82.7342919,35.2334472
"ND","Fargo",-96.7898034,46.8771863
"HI","Kailua",-157.7394444,21.4022222
"OK","Grove ",-94.7691186,36.5936863
"SC","Georgetown",-79.2944964,33.376834
"KY","Radcliff",-85.9491298,37.8403456
"LA","Jackson",-91.2176087,30.8374036
"SC","Florence",-79.7625625,34.1954331
"KY","Bardstown ",-85.4669025,37.8092279
"KY","Magnolia",-85.7435739,37.4439477
"AK","Golovin",-163.0291667,64.5433333
"AZ","Apache Junction ",-111.5495777,33.4150485
"CA","Temecula ",-117.1483648,33.4936391
"IA","Perry",-94.1071797,41.8385964
"KY","Radcliffe",-85.9491298,37.8403456
"MI","Riverview",-83.1793697,42.1742073
"SC","Murrells Inlet",-79.0414261,33.5510021
"GA","Blackshear",-82.2420661,31.3060513
"GA","Waycross",-82.3540178,31.2135511
"LA","Livingston",-90.7478737,30.5021345
"MD","Gaithersburg",-77.2013705,39.1434406
"MD","Kensington",-77.0763669,39.0256651
"MO","Columbia",-92.3340724,38.9517053
"TX","Corpus Christi",-97.396381,27.8005828
"VA","Hampton ",-76.3452218,37.0298687
"GA","Alma ",-82.4623557,31.5393701
"MA","Auburn",-71.8356271,42.1945385
"GA","Nahunta",-81.981226,31.20439
"LA","Springfield",-90.5487012,30.4290818
"MD","Glen Burnie",-76.6246886,39.1626084
"VA","Fairfax",-77.3063733,38.8462236
"IL"," Chicago",-87.6297982,41.8781136
"MA","Shrewsbury",-71.7128471,42.2959267
"TX","Rowlett",-96.56388,32.9029017
"IN","St. John",-87.4700381,41.4500356
"TX","Mesquite",-96.5991593,32.7667955
"IN","Munster",-87.5125412,41.5644798
"IN","Schererville",-87.4547605,41.4789246
"OH","Huber Heights",-84.1246608,39.843947
"AK","Wales",-168.0875,65.6091667
"GA","Sandy Springs",-84.3733147,33.9304352
"IN","Highland",-87.451984,41.5536468
"IN","Valparaiso",-87.0611412,41.4730948
"KY","Sonora",-85.8930192,37.524226
"GA","Calhoun",-84.9510542,34.502587
"IN","Cedar Lake",-87.4411473,41.3647578
"GA","Cartersville",-84.7999382,34.1650972
"IN","Vincennes",-87.5286325,38.677269
"AK","Unalakleet",-160.7880556,63.8730556
"HI","Lanai City",-156.9222222,20.8305556
"TX","CANYON",-101.9188024,34.9803342
"IL","Mahomet",-88.4042234,40.1953106
"NY","Slingerlands",-73.8645685,42.6292455
"NY","Troy",-73.6917851,42.7284117
"NY","Troy ",-73.6917851,42.7284117
"AR","Van Buren",-94.348268,35.436756
"NY","Clifton Park",-73.8183804,42.844668
"DE","Seaford",-75.6110381,38.6412256
"NC","Wilkesboro",-81.1606401,36.1459649
"CO","Aurora",-104.8319195,39.7294319
"DE","Delmar",-75.5771471,38.4565052
"GA","Alma",-82.4623557,31.5393701
"KS","Stafford ",-98.6006375,37.9622371
"DE","Georgetown",-75.3854728,38.6901134
"DE","Laurel",-75.5713141,38.5565041
"MD","Federalsburg",-75.7721551,38.6942809
"IN","Hammond",-87.5000412,41.5833688
"TN","Byrdstown ",-85.1288435,36.5745104
"TX","Joshua",-97.3880731,32.4615291
"TX","Plainview ",-101.7068417,34.1847936
"TN","Sparta",-85.4641421,35.9258985
"GA","Locust Grove",-84.109083,33.3459495
"TX","Hale Center ",-101.8437866,34.0642436
"FL","Ormand Beach",-81.0558894,29.2858129
"MD","Rockville",-77.1527578,39.0839973
"MD","Germantown",-77.2716502,39.1731621
"MD","Olney",-77.066923,39.1531627
"MI","Clarkston ",-83.4192941,42.7351196
"FL","Alachua",-82.4944226,29.7938144
"NC","Raeford",-79.2241997,34.9809995
"WA","Vancouver",-122.6716063,45.6318397
"OK","Pryor",-95.3169136,36.3084275
"MD","Bel Air ",-76.3482931,39.5359406
"TX","PLANO",-96.6988856,33.0198431
"KY","Bowling Green ",-86.4808043,36.9685219
"OR","Canby",-122.6921006,45.2622655
"GA","Dalton",-84.9702228,34.7698021
"KY","Franklin",-86.5772177,36.722263
"OR","Tualatin",-122.7639851,45.3840077
"CO","Lakewood",-105.0813734,39.7047095
"DE","Bridgeville",-75.6043714,38.7426137
"KY","Morgantown ",-86.6835998,37.2256023
"GA","Peachtree City",-84.5963432,33.3968557
"MD","Towson",-76.6019125,39.4014955
"NC","Pembroke",-79.1950373,34.6801626
"OR","Lake Oswego",-122.6706498,45.4206749
"IL","Barrington",-88.1361888,42.1539141
"OR","West Linn",-122.6123141,45.3656761
"GA","Suwanee",-84.0712997,34.0514898
"NC","Jefferson",-81.4734376,36.420403
"GA","Chatsworth",-84.7699385,34.7659145
"GA","Cedartown",-85.2565823,34.0112715
"OR","Portland ",-122.6764816,45.5230622
"IL","Mundelein",-88.0039653,42.263079
"WA","Renton",-122.2170661,47.4828776
"IL","Farmer City",-88.6425668,40.2433676
"IN","Crown Point",-87.3653135,41.4169806
"PA","Noxen ",-76.0585367,41.4214671
"PA","Edwardsville",-75.9163085,41.2695257
"PA","Freeland ",-75.897143,41.0167507
"CA","Banning",-116.8764103,33.9255713
"PA","Shickshinny",-76.1502078,41.1531388
"IN","Portage",-87.1761455,41.5758707
"NC","Arden",-82.5166982,35.4661613
"IL","Chicago ",-87.6297982,41.8781136
"IN","Hobart",-87.2550353,41.5322592
"TN","Sevierville",-83.561835,35.8681455
"GA","Fairmount",-84.6999346,34.4362013
"IL","Paxton ",-88.0953201,40.4603125
"IN","East Chicago",-87.4547635,41.6392024
"OR","St Helens",-122.8158185,45.8590111
"CA","San Jacinto",-116.958635,33.7839084
"SD","White River",-100.7454167,43.5680531
"KS","South Hutchinson",-97.9403303,38.0280671
"AL","Clayton",-85.4496627,31.8782162
"AL","Slocomb",-85.594378,31.1082335
"TN","McMinnville",-85.7801453,35.6865889
"UT","South Jordan",-111.929658,40.5621704
"KS","McPherson",-97.6642087,38.3708415
"TX","College Station",-96.3344068,30.627977
"OR","Portland",-122.6764816,45.5230622
"NJ","Warren",-74.5004796,40.6342489
"IL","Libertyville",-87.9531303,42.2830786
"IL","Gibson City",-88.3758875,40.4653118
"KY","Munfordville",-85.8910819,37.2722751
"GA","COCHRAN",-83.3546098,32.3868278
"TX","Floydada",-101.3376574,33.9845232
"TX","Pleasanton",-98.4786269,28.967194
"IL","Carbondale",-89.2167501,37.7272727
"SC","Charleston",-79.9310512,32.7764749
"AR","Greenwood",-94.2557663,35.2156489
"NJ","Lakewood",-74.2097014,40.082129
"LA","Alexandria",-92.4451371,31.3112936
"MO","Mt Vernon",-93.8185401,37.1036665
"MD","Hurlock",-75.8615316,38.6355387
"TX","Pearland",-95.2860474,29.5635666
"OR","Beaverton",-122.8037102,45.487062
"VA","Orange",-78.1108342,38.2454106
"LA","Slaughter",-91.1414958,30.7174063
"KS","Manhattan",-96.5716694,39.1836082
"LA","Beaux Bridge",-91.8992837,30.2735323
"FL","Miami",-80.1917902,25.7616798
"FL","Wesley Chapel",-82.3641751,28.182893
"NY","Plattsburgh",-73.4529124,44.6994873
"AL","Eufaula",-85.1454876,31.8912717
"MI","Traverse City",-85.6206317,44.7630567
"NJ","Toms River",-74.1979458,39.9537358
"TN","Cooksville",-85.5016423,36.162839
"FL","Boca Raton",-80.1289321,26.3683064
"KY","Glasgow",-85.9119215,36.9958839
"PA","Pittsburgh ",-79.9958864,40.4406248
"CO","Parker",-104.7613633,39.5186002
"GA","Columbus",-84.9877094,32.4609764
"WA","Spokane",-117.4260466,47.6587802
"FL","Deerfield Beach",-80.0997657,26.3184123
"IN","Elkhart",-85.9766671,41.6819935
"PA","Washington",-80.2461714,40.17396
"NJ","Bridgewater",-74.6049061,40.5939636
"UT","Saint George",-113.5684164,37.0965278
"MI","Centreville",-85.5283225,41.9233827
"CA","Tustin",-117.826166,33.7458511
"FL","Davie",-80.2521157,26.0764783
"MI","Royal Oak",-83.1446485,42.4894801
"SC","Prosperity",-81.5331602,34.2093079
"FL","Jensen Beach",-80.2297697,27.2544906
"FL","New Smyrna Beach",-80.9269984,29.0258191
"FL","The Villages",-82.0037608,28.927019
"GA","Atlanta",-84.3879824,33.7489954
"GA","East Point",-84.4393724,33.6795531
"IL","Arlington Hts",-87.9806265,42.0883603
"IL","Forrest",-88.4111647,40.7519792
"IN","Saint John",-87.4700381,41.4500356
"IN","Sullivan",-87.4058525,39.0953199
"MA","Methuen",-71.1908924,42.7262016
"MI","Holland",-86.1089301,42.7875235
"NC","Fuquay Varina",-78.8000128,35.5843235
"NC","Winston Salem",-80.244216,36.0998596
"OH","Ottawa",-84.0471666,41.0192185
"OH","Saint Marys",-84.3893961,40.5422697
"OR","Gresham",-122.4302013,45.5001357
"TN","Byrdstown",-85.1288435,36.5745104
"TX","Benbrook",-97.4605759,32.673188
"TX","Canyon",-101.9188024,34.9803342
"TX","Eastland",-98.8175623,32.4015198
"TX","Plainview",-101.7068417,34.1847936
"TX","Weslaco",-97.9908366,26.1595194
"AR","Ashdown",-94.1313054,33.6742867
"AZ","Prescott Valley",-112.315721,34.6100243
"FL","Winter Park",-81.3392352,28.5999998
"GA","Dublin",-82.903754,32.5404447
"IN","Laporte",-86.7227195,41.611143
"KY","Bardstown",-85.4669025,37.8092279
"KY","Russellville",-86.887219,36.8453199
"LA","Moss Bluff",-93.1907097,30.3027042
"NJ","Howell",-74.2082671,40.1645785
"OH","Mason",-84.309939,39.3600586
"PA","Falls",-75.8469168,41.4601704
"AR","Prairie Grove",-94.3177103,35.9759145
"IL","Paxton",-88.0953201,40.4603125
"MI","Clarkston",-83.4192941,42.7351196
"SD","Bison",-102.4612708,45.5202647
"VA","Hampton",-76.3452218,37.0298687
"FL","Spring Hill",-82.5369872,28.4831682
"FL","Land O Lakes",-82.4575938,28.2188992
"OK","Grove",-94.7691186,36.5936863
"FL","Palm Harbor",-82.7637127,28.0780718
"IL","Grayslake",-88.041746,42.3444664
"LA","Breaux Bridge",-91.8992837,30.2735323
"NC","Morganton",-81.6848188,35.7454071
"SD","Lake Preston",-97.377294,44.3635802
"TX","West Lake Hills",-97.8019515,30.2979843
"IA","Saint Ansgar",-92.9203887,43.3784811
"PA","Monroe Township",-77.067959,40.1609591
"FL","Jupiter",-80.0942087,26.9342246
"NJ","Manahawkin",-74.2587527,39.695397
"FL","St Augustine",-81.3124341,29.9012437
"MN","Blaine",-93.2349489,45.1607987
"TN","Vonore",-84.2418612,35.590078
"MD","Laurel",-76.8483061,39.0992752
"MI","Elk Rapids",-85.4164605,44.8955578
"UT","Provo",-111.6585337,40.2338438
"FL","Naples",-81.7948103,26.1420358
"FL","Palm Beach Gardens",-80.1386547,26.8233946
"FL","Fort Myers",-81.8723084,26.640628
"IL","Waukegan",-87.8447938,42.3636331
"IN","Dyer",-87.5217068,41.4942021
"FL","Panama City Beach",-85.8054879,30.1765914
"FL","West Palm Beach",-80.0533746,26.7153424
"IL","Lake Barrington",-88.167149,42.2122015
"VA","Harrisonburg",-78.8689155,38.4495688
"MD","Bel Air",-76.3482931,39.5359406
"OR","Saint Helens",-122.8158185,45.8590111
"TN","Martin",-88.8503379,36.3433965
"WI","Spring Valley",-92.2387957,44.8452432
"AR","Hot Springs",-93.0551795,34.5037004
"FL","Hudson",-82.6934343,28.3644485
"FL","Vero Beach",-80.3972736,27.6386434
"OK","Chickasha",-97.9364326,35.052565
"FL","Cape Coral",-81.9495331,26.5628537
"FL","Doral",-80.3553302,25.8195424
"FL","Ocala",-82.1400923,29.1871986
"CA","Thermal",-116.1422353,33.6402638
"FL","Port Saint Lucie",-80.3582261,27.2730492
"KY","Clarkson",-86.2213614,37.4953332
"MN","Andover",-93.2913405,45.2332984
"PA","Nuremberg",-76.1716009,40.9395304
"TX","Humble",-95.2621553,29.9988312
"CA","Livingston",-120.7235329,37.3868826
"CA","Los Banos",-120.8499151,37.0582786
"CA","Merced",-120.4829677,37.3021632
"IL","Elk Grove Village",-87.9703461,42.0039178
"MN","Saint Paul",-93.0899578,44.9537029
"PA","Pittsburgh",-79.9958864,40.4406248
"FL","Altamonte Springs",-81.3656242,28.6611089
"FL","Tequesta",-80.1121493,26.9636401
"NJ","Brick",-74.1371832,40.0578384
"OR","Woodburn",-122.8553725,45.143731
"SD","Mc Intosh",-101.3495764,45.92139
"TN","Jackson",-88.8139469,35.6145169
"FL","Punta Gorda",-82.0453664,26.9297836
"MN","Chisago City",-92.8899376,45.3735757
"MN","Columbia Heights",-93.2474098,45.0481968
"FL","Inverness",-82.3313955,28.8354507
"TX","Live Oak",-98.3364025,29.5652286
"MN","Brooklyn Park",-93.3563405,45.0941315
"NV","Henderson",-114.9817213,36.0395247
"NY","Halfmoon",-73.7242486,42.8690107
"NY","Olean",-78.429927,42.083639
"TX","Irving",-96.9488945,32.8140177
"MN","Bloomington",-93.2982799,44.840798
"NY","Massapequa",-73.4742914,40.6806563
"MI","Portage",-85.5800022,42.2011538
"CO","Littleton",-105.0166498,39.613321
"NJ","Lebanon",-74.8359987,40.6417683
"NY","Brooklyn",-73.9441579,40.6781784
"CO","Canon City",-105.2253316,38.4494063
"CO","Evergreen",-105.3172146,39.6333213
"CO","Frisco",-106.0975203,39.5744309
"CO","Pueblo",-104.6091409,38.2544472
"CO","Woodland Park",-105.0569301,38.9938808
"WV","Weirton",-80.5895167,40.4189566
"TX","Sinton",-97.5091611,28.0366818
"MS","Saltillo",-88.6817201,34.3764923
"TX","Hale Center",-101.8437866,34.0642436
"CA","Orange",-117.8531119,33.7877944
"CO","Denver",-104.9622498,39.7616189
"NM","Santa Fe",-105.937799,35.6869752
"AR","Rogers",-94.1185366,36.3320196
"UT","American Fork",-111.7957645,40.3768954
"NJ","Somerset",-74.4884868,40.497604
"VA","Charlottesville",-78.4766781,38.0293059
"CO","Louisville",-105.1319296,39.977763
"CO","Highlands Ranch",-104.9739333,39.5480789
"OH","Farmersville",-84.4291132,39.6795
"CO","Westminster",-105.0372046,39.8366528
"WV","Sutton",-80.7098191,38.6645443
"CO","Silverthorne",-106.0712941,39.6296191
"AK","Anchorage",-149.9002778,61.2180556
"NY","Sauquoit",-75.2600438,43.0041276
"IL","Hoopeston",-87.6683573,40.4672587
"IN","Lafayette",-86.8752869,40.4167022
"AL","Newton",-85.6052133,31.3351716
"AZ","Oro Valley",-110.966488,32.3909071
"IN","Bloomington",-86.5263857,39.165325
"CO","Northglenn",-104.9811468,39.8961821
"FL","Saint Johns",-81.4278984,29.9719419
"MO","Bolivar",-93.4104749,37.6144838
"TN","Louisville",-84.0479643,35.8217479
"IA","Lake Mills",-93.5325269,43.419329
"NJ","Hillsborough",-74.6472522,40.5106322
"TX","Idalou",-101.6829424,33.6664733
"FL","ORLANDO",-81.3792365,28.5383355
"TX","Shallowater",-101.9982275,33.6889728
"FL","Cocoa",-80.7419984,28.3861159
"FL","Land O'Lakes, FL  34637  ",-82.4644445,28.290178
"FL","Titusville",-80.8075537,28.6122187
"FL","ZEPHYRHILLS FLORIDA 33542",-82.1768018,28.2333268
"FL","SARASOTA",-82.5306527,27.3364347
"VA","South Riding",-77.4985673,38.9120704
"FL","Sarasota",-82.5306527,27.3364347
"KY","Lewisburg",-86.9472194,36.9864336
"WI","Bowler",-88.9820527,44.8630295
"CA","Atwater",-120.609084,37.3477174
"CA","Temecula",-117.1483648,33.4936391
"FL","Tarpon Springs",-82.7567679,28.1461248
"KS","Garden City",-100.8726618,37.9716898
"CO","Keystone",-105.9347384,39.5791675
"AK","Koyuk",-161.1569443,64.9319444
"AZ","Green Valley",-110.9937019,31.8542511
"FL","Port Charlotte",-82.0906448,26.9761707
"FL","TAMPA FLORIDA 33603",-82.4590282,27.9816157
"OH","Youngstown",-80.6495194,41.0997803
"FL","Aventura",-80.1392121,25.9564812
"FL","Estero",-81.8067523,26.438136
"FL","Miami Beach",-80.1300455,25.790654
"NJ","Chester",-74.6968284,40.7842667
"FL","Delray Beach",-80.0728201,26.4614625
"CO","Breckenridge",-106.0383518,39.4816537
"FL","Lake Worth",-80.0684479,26.6167555
"FL","Land O'Lakes, FL  34637",-82.4644445,28.290178
"FL","Parrish",-82.4250941,27.5875357
"FL","Winter Haven",-81.7328567,28.0222435
"NC","Linville",-81.8704481,36.0711174
"CO","Durango",-107.8800667,37.27528
"FL","Fernandina Beach",-81.4625919,30.6696818
"OK","Broken Arrow",-95.7974526,36.060949
"OK","McAlester",-95.7697131,34.9334298
"TX","Post",-101.3781941,33.1909283
"FL","Homestead",-80.4775569,25.4687224
"FL","Immokalee",-81.4174057,26.4185248
"FL","LUTZ",-82.4614831,28.1511243
"FL","Pinecrest",-80.3070395,25.6622835
"MA","Brookline",-71.1211635,42.3317642
"WA","Bellevue",-122.2015159,47.6101497
"FL","Bonita Springs",-81.7786972,26.339806
"TX","Aransas Pass",-97.1499898,27.9094677
"WV","Rock Cave",-80.3425838,38.8367674
"CO","Erie",-105.0499817,40.0502623
"FL","Bradenton",-82.5748194,27.4989278
"FL","Coral Springs",-80.2706044,26.271192
"FL","Lake Mary",-81.3178446,28.7588833
"FL","North Port",-82.2359254,27.044224
"FL","Orange City",-81.2986741,28.9488761
"IN","Indianapolis",-86.158068,39.768403
"MO","Sparta",-93.0815678,37.0011646
"FL","Englewood",-82.3525952,26.9620053
"FL","Palm Bay",-80.5886646,28.0344621
"IN","Paoli",-86.468321,38.5561663
"MN","St Louis Park",-93.3702186,44.9597376
"CO","Yuma",-102.7252096,40.1222084
"FL","Indian Harbour Beach",-80.5883855,28.1489021
"FL","Maitland",-81.3631244,28.6277767
"FL","Melbourne",-80.6081089,28.0836269
"FL","Oviedo",-81.2081203,28.669997
"FL","Port Saint John",-80.7886657,28.4769458
"FL","Rockledge",-80.7269854,28.3164498
"FL","Saint Petersburg",-82.6267345,27.7518284
"IN","Bedford",-86.4872149,38.8611619
"IN","Muncie",-85.3863599,40.1933767
"TN","Smyrna",-86.5186045,35.9828412
"CO","Bayfield",-107.5981123,37.2255593
"FL","Cocoa Beach",-80.6075513,28.3200067
"FL","Davenport",-81.6017417,28.1614046
"FL","Pinellas Park",-82.6995443,27.8428025
"FL","SAINT LEO",-82.2584191,28.3372251
"FL","Sanford",-81.269453,28.8028612
"FL","WESLEY CHAPEL",-82.3641751,28.182893
"IN","Avon",-86.3997167,39.7628227
"IN","Hartford City",-85.369972,40.451154
"NC","Waynesville",-82.9887477,35.4887145
"WV","West Milford",-80.4042579,39.2009242
"WV","Buckhannon",-80.2320276,38.9939872
"FL","CLEARWATER",-82.8001026,27.9658533
"IN","Martinsville",-86.4283279,39.4278253
"IN","Fishers",-86.01335,39.9567548
"IN","Monticello",-86.7647343,40.7453169
"WV","Ivydale",-81.0348297,38.5356548
"FL","North Miami",-80.1867138,25.8900949
"IL","Fox River Grove",-88.2145259,42.2008575
"FL","TARPON SPRINGS",-82.7567679,28.1461248
"CO","Monument",-104.872758,39.0916586
"SC","Clemson",-82.8373654,34.6834382
"SC","Pendleton",-82.7837514,34.6517733
"SC","Williamston",-82.4779053,34.6184471
"FL","Lakewood Ranch",-82.4285151,27.4117037
"NC","Spindale",-81.929271,35.3601212
"NY","Salamanca",-78.7150311,42.1578412
"PA","Freeland",-75.897143,41.0167507
"CA","Irvine",-117.7946942,33.6839473
"NJ","Teaneck",-74.0116536,40.8932469
"SC","Seneca",-82.9532036,34.6856555
"TX","Friona",-102.7241047,34.641734
"TX","Garland",-96.6388833,32.912624
"TX","Sunnyvale",-96.5608242,32.7965165
"IL","Gurnee",-87.9020186,42.3702996
"NC","Smithfield",-78.3394455,35.5084935
"NV","Las Vegas",-115.1398296,36.1699412
"NY","Schenectady",-73.9395687,42.8142432
"AZ","Wickenburg",-112.7301882,33.9697664
"CO","Boulder",-105.2705456,40.0149856
"GA","Tifton",-83.5084973,31.4504629
"WV","Clay",-81.0851086,38.4603788
"SC","Anderson",-82.6501332,34.5034394
"SD","Bryant",-97.4673006,44.5905226
"VA","Covington",-79.9939463,37.7934585
"WV","Gary",-81.5501063,37.3637253
"IL","Richton Park",-87.7033787,41.484479
"WV","Clarksburg",-80.3445341,39.2806451
"ND","Crosby",-103.2949095,48.9141998
"WA","Olympia",-122.9006951,47.0378741
"NY","Middletown",-74.4229341,41.4459271
"SD","Howard",-97.526736,44.0108074
"WA","Issaquah",-122.0326191,47.5301011
"WA","Ocean Shores",-124.1562852,46.9736986
"AR","Marshall",-92.6312746,35.9089643
"NJ","Maplewood",-74.271992,40.7299793
"TX","Mathis",-97.8280543,28.0944558
"WA","Aberdeen",-123.8157218,46.9753708
"WA","Battle Ground",-122.5334307,45.7809491
"WA","Elma",-123.4087692,47.0034291
"WA","Lacey",-122.8231915,47.0342629
"MI","Gaylord",-84.6747523,45.0275126
"FL","VERO BEACH",-80.3972736,27.6386434
"WV","Weston",-80.467313,39.0384274
"WA","Monroe",-121.9709579,47.8553772
"WA","Yelm",-122.6059582,46.9420431
"WA","Everett",-122.2020794,47.9789848
"IN","Rushville",-85.4463594,39.6092137
"FL","PANAMA CITY BCH",-85.8054879,30.1765914
"FL","Palm Coast",-81.2078699,29.5844524
"TN","Nashville",-86.7816016,36.1626638
"NY","Catskill",-73.959494,42.2146071
"NY","Copake",-73.5499249,42.1034549
"WV","Lizemore",-81.1751099,38.3339926
"FL","Clermont",-81.7728543,28.5494447
"OH","Hanover",-82.2609801,40.0797892
"WV","Nutter Fort",-80.3198114,39.2634234
"FL","Venice",-82.4542632,27.0997775
"NY","Valatie",-73.6731749,42.4134168
"NY","Hudson",-73.790959,42.2528649
"CA","Anza",-116.6741822,33.5552692
"WA","Concrete",-121.7462513,48.5392813
"WV","Parkersburg",-81.5615135,39.2667418
"CO","Cripple Creek",-105.1783149,38.7466555
"WA","Redmond",-122.121512,47.6739881
"NY","Bridgeport",-75.9693622,43.1553457
"WV","Gassaway",-80.7748218,38.6731544
"CA","Fresno",-119.7725868,36.7468422
